{
  "regions" : [
    {
      "id": 1,
      "area": "서울",
      "subArea": [ "강남구", "금천구", "영등포구"]
    },
    {
      "id": 2,
      "area": "경기",
      "subArea": [ "고양시", "부천시", "수원시" ]
    },
    {
      "id": 3,
      "area": "충청",
      "subArea": [ "대전광역시", "청주시" ]
    }
  ],
  "stores" : [
    {
      "id" : 1,
      "name" : "파르나스몰",
      "city" : "서울",
      "district" : "강남구",
      "address" : "서울특별시 강남구 테헤란로 521 (삼성동) 지오다노 우먼스 (삼성동, 파르나스타워)",
      "call" : "02-501-6362",
      "openTime" : "10:30 ~ 22:00",
      "closeTime" : "10:30 ~ 22:00",
      "latitude" :37.50918790905744,
      "longitude" : 127.06080442852581      
    },
    {
      "id" : 2,
      "name" : "코엑스몰 스타필드",
      "city" : "서울",
      "district" : "강남구",
      "address" : "서울특별시 강남구 영동대로 513 (삼성동) 코엑스몰 지하1층",
      "call" : "02-6002-3430",
      "openTime" : "10:30 ~ 22:00",
      "closeTime" : "10:30 ~ 22:00",
      "latitude" : 37.511819679328646,
      "longitude" : 127.05915519484903
    },
    {
      "id" : 3,
      "name" : "타임스퀘어",
      "city" : "서울",
      "district" : "영등포구",
      "address" : "서울특별시 영등포구 영중로 15 (영등포동4가) 타임스퀘어 3층",
      "call" : "20685539",
      "openTime" : "10:30 ~ 22:00",
      "closeTime" : "10:30 ~ 22:00",
      "latitude" : 37.51710343364176,
      "longitude" : 126.9030691405772
    },
    {
      "id" : 4,
      "name" : "IFC MALL",
      "city" : "서울",
      "district" : "영등포구",
      "address" : "서울특별시 영등포구 국제금융로 10 (여의도동) ifc mall L2 (여의도동 23)",
      "call" : "61375258",
      "openTime" : "10:00 ~ 22:00",
      "closeTime" : "10:00 ~ 22:00",
      "latitude" : 37.525059628521625,
      "longitude" : 126.92594678421818
    },
    {
      "id" : 5,
      "name" : "킨텍스현대",
      "city" : "경기",
      "district" : "고양시",
      "address" : "경기도 고양시 일산서구 호수로 817 (대화동) 현대백화점 킨텍스점 4층",
      "call" : "031-909-3154",
      "openTime" : "10:30 ~ 20:00",
      "closeTime" : "10:30 ~ 20:30", 
      "latitude" : 37.66822561354085, 
      "longitude" : 126.75110045173813
    },
    {
      "id" : 6,
      "name" : "고양 스타필드",
      "city" : "경기",
      "district" : "고양시",
      "address" : "경기도 고양시 덕양구 고양대로 1955 (동산동) 스타필드 고양점 2층",
      "call" : "031-5173-2036",
      "openTime" : "10:00 ~ 22:00",
      "closeTime" : "10:00 ~ 22:00",
      "latitude" : 37.646969253786466,
      "longitude" : 126.89495065043047
    },
    {
      "id" : 7,
      "name" : "중동현대(백)",
      "city" : "경기",
      "district" : "부천시",
      "address" : "경기도 부천시 길주로 180 (중동) 현대백화점부천중동점 u-plex 3층",
      "call" : "032-623-2445",
      "openTime" : "10:00 ~ 22:00",
      "closeTime" : "10:00 ~ 22:00",
      "latitude" : 37.50426380488237, 
      "longitude" : 126.76182441654757
    },
    {
      "id" : 8,
      "name" : "부천 스타필드",
      "city" : "경기",
      "district" : "부천시",
      "address" : "경기도 부천시 옥길로 1 (옥길동) 스타필드시티 부천 3층",
      "call" : "02-6386-1314",
      "openTime" : "10:00 ~ 22:00",
      "closeTime" : "10:00 ~ 22:00",
      "latitude" :  37.46148018018301, 
      "longitude" : 126.81390036568646 
    },
    {
      "id" : 9,
      "name" : "현대아울렛가산점",
      "city" : "서울",
      "district" : "금천구",
      "address" : "서울특별시 금천구 디지털로10길 9 (가산동) 현대시티아울렛 가산점 2층",
      "call" : "02-2136-9938",
      "openTime" : "10:30 ~ 21:00",
      "closeTime" : "10:30 ~ 21:30",
      "latitude" : 37.47761982772269,
      "longitude" : 126.88905601452412
    },
    {
      "id" : 10,
      "name" : "수원AK(백)",
      "city" : "경기",
      "district" : "수원시",
      "address" : "경기도 수원시 팔달구 덕영대로 924 (매산로1가) AK플라자 2층",
      "call" : "031-240-1734",
      "openTime" : "10:30 ~ 22:00",
      "closeTime" : "10:30 ~ 21:00",
      "latitude" : 37.26567137044228,
      "longitude" : 127.00008568108169
    },
    {
      "id" : 11,
      "name" : "동수원뉴코아",
      "city" : "경기",
      "district" : "수원시",
      "address" : "경기도 수원시 팔달구 인계로 154 (인계동) 동수원뉴코아아울렛 4층",
      "call" : "031-231-6324",
      "openTime" : "10:30 ~ 21:00",
      "closeTime" : "10:30 ~ 22:00",
      "latitude" : 37.266304334348874,
      "longitude" : 127.03431781464577
    },
    {
      "id" : 12,
      "name" : "광교롯데아울렛",
      "city" : "경기",
      "district" : "수원시",
      "address" : "경기도 수원시 영통구 도청로 10 (이의동) 롯데아울렛 광교점 지하1층",
      "call" : "031-8064-2050",
      "openTime" : "11:00 ~ 21:00",
      "closeTime" : "11:00 ~ 21:00",
      "latitude" :  37.28666343827753,
      "longitude" : 127.05544203154192
    },
    {
      "id" : 13,
      "name" : "대전현대아울렛",
      "city" : "충청",
      "district" : "대전광역시",
      "address" : "대전광역시 유성구 테크노중앙로 123 (용산동) 현대프리미엄아울렛 대전점 3층",
      "call" : "042-332-2403",
      "openTime" : "11:00 ~ 21:00",
      "closeTime" : "11:00 ~ 21:00",
      "latitude" :  36.423434676072524, 
      "longitude" :  127.39851274206728
    },
    {
      "id" : 14,
      "name" : "대전신세계(백)",
      "city" : "충청",
      "district" : "대전광역시",
      "address" : "대전광역시 유성구 엑스포로 1 (도룡동) 대전신세계 Art & Science 5층",
      "call" : "042-607-8548",
      "openTime" : "10:00 ~ 20:00",
      "closeTime" : "10:00 ~ 20:00",
      "latitude" :  36.37509935256295,
      "longitude" : 127.38206284516627
    },
    {
      "id" : 15,
      "name" : "충청현대",
      "city" : "충청",
      "district" : "청주시",
      "address" : "충청북도 청주시 흥덕구 직지대로 308 (복대동) 현대백화점 유플렉스2층",
      "call" : "043-909-4831",
      "openTime" : "10:00 ~ 20:00",
      "closeTime" : "10:00 ~ 20:00",
      "latitude" :  36.64486104854656, 
      "longitude" : 127.42655582259482
    },
    {
      "id" : 16,
      "name" : "청주",
      "city" : "충청",
      "district" : "청주시",
      "address" : "충청북도 청주시 상당구 성안로 16 1층( 북문로1가, 산업은행 1층 )",
      "call" : "043-224-9801",
      "openTime" : "10:00 ~ 20:45",
      "closeTime" : "10:00 ~ 20:45",
      "latitude" :  36.635394154362174,
      "longitude" : 127.48885009857321
    },
    {
      "id" : 17,
      "name" : "강남롯데(백)",
      "city" : "서울",
      "district" : "강남구",
      "address" : "서울특별시 강남구 도곡로 401 (대치동) 롯데백화점 본관 6F",
      "call" : "5312732",
      "openTime" : "10:30 ~ 20:00",
      "closeTime" : "10:30 ~ 20:30",
      "latitude" : 37.49697392315261,
      "longitude" : 127.05324496669675
    },
    {
      "id" : 18,
      "name" : "구로마리오",
      "city" : "서울",
      "district" : "금천구",
      "address" : "서울특별시 금천구 벚꽃로 266 (가산동) 마리오아울렛 3관 3층",
      "call" : "02-2067-2230",
      "openTime" : "10:30 ~ 21:00",
      "closeTime" : "10:30 ~ 21:30",
      "latitude" :  37.47844134271213,
      "longitude" : 126.88507066896491
    },
    {
      "id" : 19,
      "name" : "W-MALL",
      "city" : "서울",
      "district" : "금천구",
      "address" : "서울특별시 금천구 디지털로 188 (가산동) 더블유몰 3층",
      "call" : "02-501-6362",
      "openTime" : "10:30 ~ 22:00",
      "closeTime" : "10:30 ~ 22:00",
      "latitude" :  37.47732299402434,
      "longitude" : 126.88767717765191
    },
    {
      "id" : 20,
      "name" : "영등포롯데(백)",
      "city" : "서울",
      "district" : "영등포구",
      "address" : "서울특별시 영등포구 경인로 846 (영등포동) 영등포 민자역사, 롯데백화점 2층",
      "call" : "02-2164-5351",
      "openTime" : "10:30 ~ 20:00",
      "closeTime" : "10:30 ~ 20:30",
      "latitude" :  37.51566550928577,
      "longitude" : 126.90766339697535
    },
    {
      "id" : 21,
      "name" : "일산뉴코아에센셜",
      "city" : "경기",
      "district" : "고양시",
      "address" : "경기도 고양시 일산동구 중앙로 1206 (마두동) 뉴코아백화점일산점 4층",
      "call" : "031-900-5208",
      "openTime" : "10:30 ~ 21:00",
      "closeTime" : "10:30 ~ 22:00",
      "latitude" :  37.65457859744162, 
      "longitude" : 126.77682509351128
    },
    {
      "id" : 22,
      "name" : "부천롯데(백)",
      "city" : "경기",
      "district" : "부천시",
      "address" : "경기 부천시 중동 1140",
      "call" : "02-6386-1234",
      "openTime" : "10:00 ~ 20:00",
      "closeTime" : "10:00 ~ 20:00",
      "latitude" :  37.502560084131645, 
      "longitude" : 126.77519744977337
    },
    {
      "id" : 23,
      "name" : "대전갤러리아(백)",
      "city" : "충청",
      "district" : "대전광역시",
      "address" : "대전광역시 서구 대덕대로 211 (둔산동) 갤러리아타임월드백화점 7층",
      "call" : "042-485-1644",
      "openTime" : "10:00 ~ 20:00",
      "closeTime" : "10:00 ~ 20:00",
      "latitude" :  36.35195161706538,
      "longitude" :  127.37816190950625 
    },
    {
      "id" : 24,
      "name" : "청주NC백화점",
      "city" : "충청",
      "district" : "청주시",
      "address" : "충북 청주시 흥덕구 직지대로 308",
      "call" : "042-485-7777",
      "openTime" : "10:00 ~ 20:00",
      "closeTime" : "10:00 ~ 20:00",
      "latitude" :  36.64482160784903,  
      "longitude" :  127.42649745562413
    }
  ]
}