[
  {
    "id" : 1,
    "subArea":["강남구,영등포구,송파구"],
    "title":"파르나스몰",
    "address":"서울특별시 강남구 테헤란로 521 (삼성동) 지오다노 우먼스 (삼성동, 파르나스타워)",
    "weekday":"10:30~22:00",
    "weekend" : "10:30~22:00",
    "tel" : "02-501-6362",
    "location" :  "지도추가" 
  },
  {
    "id" : 2,
    "area":{
      "서울" : ["강남구","영등포구","송파구"],
      "경기" : ["고양시","부천시"],
      "인천" : ["미추홀구","서구"]
    },
    "title":"코엑스몰 스타필드",
    "address":"서울특별시 강남구 영동대로 513 (삼성동) 코엑스몰 지하1층",
    "weekday":"10:30~22:00",
    "weekend" : "10:30~22:00",
    "tel" : "02-6002-3430",
    "location" :  "지도추가" 
  },
  {
    "id" : 3,
    "area":{
      "서울" : ["강남구","영등포구","송파구"],
      "경기" : ["고양시","부천시"],
      "인천" : ["미추홀구","서구"]
    },
    "title":"타임스퀘어",
    "address":"서울특별시 영등포구 영중로 15 (영등포동4가) 타임스퀘어 3층",
    "weekday":"10:30~22:00",
    "weekend" : "10:30~22:00",
    "tel" : "02-685-0539",
    "location" :  "지도추가" 
  },
  {
    "id" : 4,
    "area":{
      "서울" : ["강남구","영등포구","송파구"],
      "경기" : ["고양시","부천시"],
      "인천" : ["미추홀구","서구"]
    },
    "title":"영등포롯데(백)",
    "address":"서울특별시 영등포구 경인로 846 (영등포동) 영등포 민자역사, 롯데백화점 2층",
    "weekday":"10:30~22:00",
    "weekend" : "10:30~22:00",
    "tel" : "02-2164-5351",
    "location" :  "지도추가" 
  },
  {
    "id" : 5,
    "area":{
      "서울" : ["강남구","영등포구","송파구"],
      "경기" : ["고양시","부천시"],
      "인천" : ["미추홀구","서구"]
    },
    "title":"잠실롯데(백)",
    "address":"서울특별시 송파구 충민로 66 (문정동) 가든파이브 라이프동 영관4층",
    "weekday":"10:30~21:00",
    "weekend" :"10:30~22:30",
    "tel" : "070-8225-2125",
    "location" :  "지도추가" 
  },
  {
    "id" : 6,
    "area":{
      "서울" : ["강남구","영등포구","송파구"],
      "경기" : ["고양시","부천시"],
      "인천" : ["미추홀구","서구"]
    },
    "title":"킨텍스현대",
    "address":"경기도 고양시 일산서구 호수로 817 (대화동) 현대백화점 킨텍스점 4층",
    "weekday":"10:30~21:00",
    "weekend" :"10:30~22:30",
    "tel" : "031-822-3480",
    "location" :  "지도추가" 
  },
  {
    "id" : 7,
    "area":{
      "서울" : ["강남구","영등포구","송파구"],
      "경기" : ["고양시","부천시"],
      "인천" : ["미추홀구","서구"]
    },
    "title":"중동현대(백)",
    "address":"경기도 부천시 길주로 180 (중동) 현대백화점부천중동점 u-plex 3층",
    "weekday" : "10:00~22:00",
    "weekend" : "10:00~22:00",
    "tel" : "032-623-2445",
    "location" :  "지도추가" 
  }
]